[{"_id":"56247746e4484af803d3baea","id":79016838,"name":"Miss Gay Rosenbaum","email":"Annamae75@hotmail.com","address":{"street":"368 South 41st Street","fullAddress":"368 S 41st St, Richmond, CA 94804, USA","zip":"94804","city":"Contra Costa County","state":"CA"},"phone":"(833) 786-1405","interest":["Produce Clerk","Janitor","Laborer","Dock Worker","Meter Reader","Boilermaker Operator","Production","Foreman","Press Operator","Waiter/Waitress"],"lng":"-122.330545090841","lat":"37.9268727312007"},{"_id":"56247746e4484af803d3baeb","id":48614046,"name":"Thalia Steuber","email":"Damon44@gmail.com","address":{"street":"undefined Castro Street","fullAddress":"Castro St, Richmond, CA 94801, USA","zip":"94801","city":"Contra Costa County","state":"CA"},"phone":"(577) 893-9106","interest":["Fabricator","Furrier","Plumber","Carpenter","Upholstery"],"lng":"-122.3787185","lat":"37.9370696"},{"_id":"56247746e4484af803d3baec","id":23985469,"name":"Mortimer Lemke","email":"Katheryn_Kutch78@gmail.com","address":{"street":"414 South 23rd Street","fullAddress":"414 S 23rd St, Richmond, CA 94804, USA","zip":"94804","city":"Contra Costa County","state":"CA"},"phone":"(972) 663-8514","interest":["Conductor","Animal Technician/Groomer","Utility","Custodian","Inspector"],"lng":"-122.347548062604","lat":"37.9263154159266"},{"_id":"56247746e4484af803d3baed","id":94265895,"name":"Maye Schaefer","email":"Patsy.Padberg6@hotmail.com","address":{"street":"667 33rd Street","fullAddress":"667 33rd St, Richmond, CA 94804, USA","zip":"94804","city":"Contra Costa County","state":"CA"},"phone":"(548) 977-7115","interest":["Molder/Injection Molder","Carpenter","Stock Clerk","Furrier","Steel Worker","Utility","Furrier"],"lng":"-122.3363805","lat":"37.9408795833333"},{"_id":"56247746e4484af803d3baee","id":10059603,"name":"Kenton Reynolds","email":"Kayley_Heathcote@gmail.com","address":{"street":"124 Vernon Avenue","fullAddress":"124 Vernon Ave, Richmond, CA 94801, USA","zip":"94801","city":"Contra Costa County","state":"CA"},"phone":"(239) 740-8779","interest":["Athlete","Molder/Injection Molder","Dock Worker","Bartender","Factory Worker"],"lng":"-122.370127408163","lat":"37.9505195918367"},{"_id":"56247746e4484af803d3baef","id":4955507,"name":"Kamryn Daniel","email":"Dave_Cassin@yahoo.com","address":{"street":"227 8th Street","fullAddress":"227 8th St, Richmond, CA 94801, USA","zip":"94801","city":"Contra Costa County","state":"CA"},"phone":"(303) 453-5325","interest":["Meter Reader","Maintenance Supervisor","Grinder","Pipefitter","Glazier","Farmer","Conductor"],"lng":"-122.361951","lat":"37.934705"},{"_id":"56247746e4484af803d3baf0","id":97261902,"name":"Ava Altenwerth","email":"Donavon_Harris@yahoo.com","address":{"street":"711 Florida Avenue","fullAddress":"711 Florida Ave, Richmond, CA 94804, USA","zip":"94804","city":"Contra Costa County","state":"CA"},"phone":"(506) 771-7531","interest":["Janitor","Animal Technician/Groomer","Helper"],"lng":"-122.36277042714","lat":"37.9295159065327"},{"_id":"56247746e4484af803d3baf1","id":49862880,"name":"Billy Wyman","email":"Carson_Quitzon@gmail.com","address":{"street":"1670-1698 Barrett Avenue","fullAddress":"1670-1698 Barrett Ave, Richmond, CA 94801, USA","zip":"94801","city":"Contra Costa County","state":"CA"},"phone":"(827) 601-6412","interest":["Sanitation","Bodyman","Journeyman","Janitor","Furrier","Maintenance Supervisor"],"lng":0,"lat":0},{"_id":"56247746e4484af803d3baf2","id":23643767,"name":"Angelica Rosenbaum","email":"Levi_Dooley@yahoo.com","address":{"street":"200 Murdock Street","fullAddress":"200 Murdock St, Richmond, CA 94804, USA","zip":"94804","city":"Contra Costa County","state":"CA"},"phone":"(508) 382-7274","interest":["Toolmaker","Grinder","Grocer","Grinder"],"lng":"-122.343359","lat":"37.933581"},{"_id":"56247746e4484af803d3baf3","id":3575838,"name":"Edgar Hirthe","email":"Misael_Balistreri@yahoo.com","address":{"street":"120 South 18th Street","fullAddress":"120 S 18th St, Richmond, CA 94804, USA","zip":"94804","city":"Contra Costa County","state":"CA"},"phone":"(405) 228-5354","interest":["Child Care","Grinder","Miner","Grocer","Driver","Steel Worker","Brakeman","Helper","Brakeman","Stock Clerk"],"lng":"-122.3523362","lat":"37.934071"},{"_id":"56247746e4484af803d3baf4","id":17957283,"name":"Jazmyn Vandervort Mr.","email":"Evie.Bauch@gmail.com","address":{"street":"2611 Chanslor Avenue","fullAddress":"2611 Chanslor Ave, Richmond, CA 94804, USA","zip":"94804","city":"Contra Costa County","state":"CA"},"phone":"(469) 623-1285","interest":["Machinist","Printer","Conductor"],"lng":"-122.344337610869","lat":"37.931913"},{"_id":"56247746e4484af803d3baf5","id":21895287,"name":"Marion Wolf","email":"Timothy_Rogahn3@yahoo.com","address":{"street":"2998 South Euclid Avenue","fullAddress":"2998 S Euclid Ave, Richmond, CA 94804, USA","zip":"94804","city":"Contra Costa County","state":"CA"},"phone":"(310) 994-8962","interest":["Material Handler","Conductor","Shop Foreman","Sanitation","Grocer","Machine Operator"],"lng":"-122.341532","lat":"37.932435"},{"_id":"56247746e4484af803d3baf6","id":39252769,"name":"Shirley Murazik","email":"Eusebio.Bayer91@hotmail.com","address":{"street":"1710 Esmond Avenue","fullAddress":"1710 Esmond Ave, Richmond, CA 94801, USA","zip":"94801","city":"Contra Costa County","state":"CA"},"phone":"(780) 666-2206","interest":["Bartender","Deli Clerk ","Lineman","Bus Driver"],"lng":"-122.353510402999","lat":"37.945191"},{"_id":"56247746e4484af803d3baf7","id":75126081,"name":"Emmanuelle Hermiston","email":"Verda44@yahoo.com","address":{"street":"828 8th Street","fullAddress":"828 8th St, Richmond, CA 94801, USA","zip":"94801","city":"Contra Costa County","state":"CA"},"phone":"(476) 742-6630","interest":["Chef","Polisher","Bartender","Parts"],"lng":"-122.36167044263","lat":"37.9448898705907"},{"_id":"56247746e4484af803d3baf8","id":22307510,"name":"Jacquelyn Krajcik","email":"Bradford.Orn@hotmail.com","address":{"street":"2700 Roosevelt Avenue","fullAddress":"2700 Roosevelt Ave, Richmond, CA 94804, USA","zip":"94804","city":"Contra Costa County","state":"CA"},"phone":"(506) 399-5481","interest":["Welder","Inspector","Cutter","Sorter","Auto Mechanic","Janitor","Helper","Apprentice","Seamstress","Steel Worker"],"lng":"-122.341808","lat":"37.939187"},{"_id":"56247746e4484af803d3baf9","id":22453269,"name":"Carli Roob","email":"Viola_Dickinson@hotmail.com","address":{"street":"2901 Garvin Avenue","fullAddress":"2901 Garvin Ave, Richmond, CA 94804, USA","zip":"94804","city":"Contra Costa County","state":"CA"},"phone":"(365) 921-2269","interest":["Gardener/Landscaper","Cosmetologist","Forklift Operator","Carpenter","Utility","Child Care","Utility","Printer","Foreman"],"lng":"-122.338661","lat":"37.943727"},{"_id":"56247746e4484af803d3bafa","id":52804553,"name":"Grady Littel","email":"Vernon17@yahoo.com","address":{"street":"2731 Rheem Avenue","fullAddress":"2731 Rheem Ave, Richmond, CA 94804, USA","zip":"94804","city":"Contra Costa County","state":"CA"},"phone":"(429) 734-4805","interest":["Locksmith","Crane Operator","Shop Foreman","Housekeeper/Maid","Plumber","Press Operator","Bartender","Foreman"],"lng":"-122.3415793","lat":"37.9500136"},{"_id":"56247746e4484af803d3bafb","id":90666671,"name":"Fausto Leannon","email":"Mohamed_Bernier@yahoo.com","address":{"street":"520 3rd Street","fullAddress":"520 3rd St, Richmond, CA 94801, USA","zip":"94801","city":"Contra Costa County","state":"CA"},"phone":"(702) 468-6573","interest":["Athlete","Operator","Glazier"],"lng":"-122.366567909091","lat":"37.9388343636364"},{"_id":"56247746e4484af803d3bafc","id":85082100,"name":"Roberto Turner Ms.","email":"Derek.Erdman88@gmail.com","address":{"street":"525 Castro Street","fullAddress":"525 Castro St, Richmond, CA 94801, USA","zip":"94801","city":"Contra Costa County","state":"CA"},"phone":"(927) 700-9363","interest":["Crane Operator","Janitor","Production","Lineman"],"lng":"-122.3787185","lat":"37.9370696"},{"_id":"56247746e4484af803d3bafd","id":19061342,"name":"Crystal Schoen","email":"Rey76@hotmail.com","address":{"street":"400 Harbour Way","fullAddress":"400 Harbour Way, Richmond, CA 94801, USA","zip":"94801","city":"Contra Costa County","state":"CA"},"phone":"(673) 457-8866","interest":["Brewer","Fisherman","Binder","Maintenance Supervisor","Athlete","Cleaner/Laundry","Food Service","Foreman"],"lng":0,"lat":0},{"_id":"56247746e4484af803d3bafe","id":17787975,"name":"Gail Konopelski","email":"Julia.Buckridge@yahoo.com","address":{"street":"543 South 8th Street","fullAddress":"543 S 8th St, Richmond, CA 94804, USA","zip":"94804","city":"Contra Costa County","state":"CA"},"phone":"(788) 914-1924","interest":["Polisher","Setupman","Shop Foreman","Animal Technician/Groomer","Painter"],"lng":"-122.3620247","lat":"37.9240028"},{"_id":"56247746e4484af803d3baff","id":93666844,"name":"Joyce Halvorson","email":"Drake.Lynch46@yahoo.com","address":{"street":"525 Castro Street","fullAddress":"525 Castro St, Richmond, CA 94801, USA","zip":"94801","city":"Contra Costa County","state":"CA"},"phone":"(350) 768-4762","interest":["Upholstery","Housekeeper/Maid","Boilermaker Operator","Installer"],"lng":"-122.3787185","lat":"37.9370696"},{"_id":"56247746e4484af803d3bb00","id":61503083,"name":"Catharine Nienow","email":"Shyanne_Morissette@yahoo.com","address":{"street":"undefined Richmond Greenway Trail","fullAddress":"Richmond Greenway Trail, Richmond, CA 94804, USA","zip":"94804","city":"Contra Costa County","state":"CA"},"phone":"(478) 966-9066","interest":["Transportation","Packer","Journeyman","Utility","Molder/Injection Molder"],"lng":"-122.3266526","lat":"37.9314065"},{"_id":"56247746e4484af803d3bb01","id":79241361,"name":"Johnpaul Conroy","email":"Kameron.Predovic81@hotmail.com","address":{"street":"2826 Center Avenue","fullAddress":"2826 Center Ave, Richmond, CA 94804, USA","zip":"94804","city":"Contra Costa County","state":"CA"},"phone":"(733) 367-7520","interest":["Forklift Operator","Upholstery","Driver","Gardener/Landscaper","Locksmith","Mason/Brick","Conductor","Sanitation","Parts"],"lng":"-122.342635","lat":"37.9301216363636"},{"_id":"56247746e4484af803d3bb02","id":15372686,"name":"Issac Kertzmann","email":"Ashley_Wilkinson@yahoo.com","address":{"street":"227 South 20th Street","fullAddress":"227 S 20th St, Richmond, CA 94804, USA","zip":"94804","city":"Contra Costa County","state":"CA"},"phone":"(303) 574-6815","interest":["Maintenance Supervisor","Crewman","Operator","Maintenance Supervisor","Baker","Binder","Parts","Crewman","Presser"],"lng":"-122.350471612181","lat":"37.9289647321351"},{"_id":"56247746e4484af803d3bb03","id":60900897,"name":"Hildegard Murphy","email":"Ned26@gmail.com","address":{"street":"535 35th Street","fullAddress":"535 35th St, Richmond, CA 94805, USA","zip":"94805","city":"Contra Costa County","state":"CA"},"phone":"(672) 521-7812","interest":["Printer","Fitter","Typesetter","Boilermaker Operator","Ironworker","Machinist","Fitter","Crane Operator"],"lng":"-122.335452327999","lat":"37.937357865937"},{"_id":"56247746e4484af803d3bb04","id":368945,"name":"Sage Lang","email":"Aliya_Grady@gmail.com","address":{"street":"652 6th Street","fullAddress":"652 6th St, Richmond, CA 94801, USA","zip":"94801","city":"Contra Costa County","state":"CA"},"phone":"(232) 298-1833","interest":["Finisher","Assembler","Fisherman","Steel Worker","Porter"],"lng":"-122.363317794078","lat":"37.9415351236988"},{"_id":"56247746e4484af803d3bb05","id":93518366,"name":"Adrienne Deckow","email":"Ella.Jenkins@hotmail.com","address":{"street":"1000 Nevin Avenue","fullAddress":"1000 Nevin Ave, Richmond, CA 94801, USA","zip":"94801","city":"Contra Costa County","state":"CA"},"phone":"(203) 392-1996","interest":["Electrician","Forklift Operator","Maintenance Supervisor","Welder","Bodyman","Electrician","Presser","Carpenter","Oil Industry/Driller"],"lng":"-122.359845","lat":"37.936746"},{"_id":"56247746e4484af803d3bb06","id":59628010,"name":"Abbey Mitchell","email":"Eriberto93@hotmail.com","address":{"street":"612 37th Street","fullAddress":"612 37th St, Richmond, CA 94805, USA","zip":"94805","city":"Contra Costa County","state":"CA"},"phone":"(851) 757-9915","interest":["Baker","Forestry","Installer","Roofer","Electrician","Laborer","Boilermaker Operator","Toolmaker","Bus Driver"],"lng":"-122.333051327792","lat":"37.9385465119405"},{"_id":"56247746e4484af803d3bb07","id":33083811,"name":"Max Will Miss","email":"Twila5@yahoo.com","address":{"street":"230 Harbour Way South","fullAddress":"230 Harbour Way S, Richmond, CA 94804, USA","zip":"94804","city":"Contra Costa County","state":"CA"},"phone":"(959) 223-6138","interest":["Installer","Assembler","Cutter","Millworker"],"lng":0,"lat":0},{"_id":"56247746e4484af803d3bb08","id":36711035,"name":"Marcel Batz","email":"Alexis.Ward@gmail.com","address":{"street":"325-377 Richmond Parkway","fullAddress":"325-377 Richmond Pkwy, Richmond, CA 94801, USA","zip":"94801","city":"Contra Costa County","state":"CA"},"phone":"(421) 817-6843","interest":["Child Care","Foreman","Maintenance","Steel Worker","Custodian"],"lng":0,"lat":0},{"_id":"56247746e4484af803d3bb09","id":64492345,"name":"Avis Hane","email":"Santino.Murphy82@gmail.com","address":{"street":"3423 Regatta Boulevard","fullAddress":"3423 Regatta Blvd, Richmond, CA 94804, USA","zip":"94804","city":"Contra Costa County","state":"CA"},"phone":"(477) 482-6531","interest":["Presser","Machinist","Baker","Cleaner/Laundry"],"lng":"-122.334992998945","lat":"37.9181718650592"},{"_id":"56247746e4484af803d3bb0a","id":90201017,"name":"Amara Stanton","email":"Kiarra_Beer@hotmail.com","address":{"street":"325-399 23rd Street","fullAddress":"325-399 23rd St, Richmond, CA 94804, USA","zip":"94804","city":"Contra Costa County","state":"CA"},"phone":"(746) 613-4241","interest":["Porter","Operator","Helper","Grocer","Sorter","Food Service"],"lng":0,"lat":0},{"_id":"56247746e4484af803d3bb0b","id":87061432,"name":"Otha Murazik","email":"Ava.Hahn55@gmail.com","address":{"street":"2399 Welcome Avenue","fullAddress":"2399 Welcome Ave, Richmond, CA 94804, USA","zip":"94804","city":"Contra Costa County","state":"CA"},"phone":"(531) 817-2055","interest":["Crane Operator","Fitter","Construction","Brewer","Grocer","Presser","Barber/Beautician","Ironworker","Janitor","Barber/Beautician"],"lng":"-122.346692","lat":"37.928995"},{"_id":"56247746e4484af803d3bb0c","id":69427732,"name":"Kory Hauck","email":"Shania.Lindgren@gmail.com","address":{"street":"634 24th Street","fullAddress":"634 24th St, Richmond, CA 94804, USA","zip":"94804","city":"Contra Costa County","state":"CA"},"phone":"(518) 246-1288","interest":["Bartender","Laborer","Production","Loader","Setupman","Pipefitter","Deli Clerk ","Butcher","Locksmith"],"lng":"-122.345025455851","lat":"37.9409542739543"},{"_id":"56247746e4484af803d3bb0d","id":72669490,"name":"Mackenzie Grant","email":"Frances_Feil@hotmail.com","address":{"street":"3524 Humphrey Avenue","fullAddress":"3524 Humphrey Ave, Richmond, CA 94804, USA","zip":"94804","city":"Contra Costa County","state":"CA"},"phone":"(462) 559-3412","interest":["Food Service","Molder/Injection Molder","Cook"],"lng":"-122.333575679467","lat":"37.9484470310786"},{"_id":"56247746e4484af803d3bb0e","id":91280778,"name":"Dannie Hane","email":"Anabel27@hotmail.com","address":{"street":"900 Hoffman Boulevard","fullAddress":"900 Hoffman Blvd, Richmond, CA 94804, USA","zip":"94804","city":"Contra Costa County","state":"CA"},"phone":"(977) 833-2915","interest":["Locksmith","Miner","Press Operator","Deli Clerk ","Auto Mechanic"],"lng":"-122.361082","lat":"37.922525"},{"_id":"56247746e4484af803d3bb0f","id":26230484,"name":"Araceli Lueilwitz","email":"Fred_Olson23@hotmail.com","address":{"street":"2713 Chanslor Avenue","fullAddress":"2713 Chanslor Ave, Richmond, CA 94804, USA","zip":"94804","city":"Contra Costa County","state":"CA"},"phone":"(379) 919-3090","interest":["Fabricator","Setupman","Bodyman","Stock Clerk","Helper","Housekeeper/Maid"],"lng":"-122.343558442175","lat":"37.9319136562437"},{"_id":"56247746e4484af803d3bb10","id":30276640,"name":"Cordelia Green","email":"Jason.Franecki97@hotmail.com","address":{"street":"1310 Hellings Avenue","fullAddress":"1310 Hellings Ave, Richmond, CA 94801, USA","zip":"94801","city":"Contra Costa County","state":"CA"},"phone":"(753) 781-1341","interest":["Upholstery","Foreman","Housekeeper/Maid"],"lng":"-122.357037737374","lat":"37.94805"},{"_id":"56247746e4484af803d3bb11","id":37630476,"name":"Lindsey Emard","email":"Asia93@gmail.com","address":{"street":"643 South 20th Street","fullAddress":"643 S 20th St, Richmond, CA 94804, USA","zip":"94804","city":"Contra Costa County","state":"CA"},"phone":"(219) 656-3270","interest":["Animal Technician/Groomer","Maintenance Supervisor","Produce Clerk","Deli Clerk ","Plumber"],"lng":"-122.350696103959","lat":"37.9235873628967"},{"_id":"56247746e4484af803d3bb12","id":4643809,"name":"Haylee Skiles","email":"Rod.Nienow26@gmail.com","address":{"street":"3431 Regatta Boulevard","fullAddress":"3431 Regatta Blvd, Richmond, CA 94804, USA","zip":"94804","city":"Contra Costa County","state":"CA"},"phone":"(587) 736-7799","interest":["Furrier","Food Service","Mason/Brick","Plumber"],"lng":"-122.335344245883","lat":"37.9181744644842"},{"_id":"56247746e4484af803d3bb13","id":59486020,"name":"Nellie Jones","email":"Jaylon_McCullough@hotmail.com","address":{"street":"undefined John T. Knox Freeway","fullAddress":"I-580, Richmond, CA 94804, USA","zip":"94804","city":"Contra Costa County","state":"CA"},"phone":"(972) 561-2071","interest":["Laborer","Molder/Injection Molder","Athlete","Millwright","Lineman"],"lng":"-122.4027621","lat":"37.9319588"},{"_id":"56247746e4484af803d3bb14","id":37407435,"name":"Jermaine Crist","email":"Mellie.OHara@gmail.com","address":{"street":"730 18th Street","fullAddress":"730 18th St, Richmond, CA 94801, USA","zip":"94801","city":"Contra Costa County","state":"CA"},"phone":"(827) 828-8720","interest":["Forklift Operator","Painter","Oil Industry/Driller","Dock Worker","Upholstery","Mason/Brick","Courier/Delivery","Grinder"],"lng":"-122.351969602106","lat":"37.942687988473"},{"_id":"56247746e4484af803d3bb15","id":14725928,"name":"Jordi Heaney","email":"Ambrose_Ratke24@gmail.com","address":{"street":"244 17th Street","fullAddress":"244 17th St, Richmond, CA 94801, USA","zip":"94801","city":"Contra Costa County","state":"CA"},"phone":"(252) 630-8876","interest":["Press Operator","Housekeeper/Maid","Seamstress","Finisher","Shop Foreman","Roofer","Packer","Deli Clerk ","Waiter/Waitress","Millworker"],"lng":"-122.353198617421","lat":"37.9345730640486"},{"_id":"56247746e4484af803d3bb16","id":23734553,"name":"Haylee Heller","email":"Isaiah70@hotmail.com","address":{"street":"624 South 19th Street","fullAddress":"624 S 19th St, Richmond, CA 94804, USA","zip":"94804","city":"Contra Costa County","state":"CA"},"phone":"(411) 870-7022","interest":["Crane Operator","Loader","Fabricator"],"lng":"-122.351504","lat":"37.9237030299195"},{"_id":"56247746e4484af803d3bb17","id":25710361,"name":"Alexandro Roob","email":"Anais1@yahoo.com","address":{"street":"361 South 13th Street","fullAddress":"361 S 13th St, Richmond, CA 94804, USA","zip":"94804","city":"Contra Costa County","state":"CA"},"phone":"(530) 531-3420","interest":["Operator","Animal Technician/Groomer","Oil Industry/Driller","Crewman","Painter","Parts","Glazier"],"lng":"-122.3571493","lat":"37.9268919"},{"_id":"56247746e4484af803d3bb18","id":50267039,"name":"Moses Crooks","email":"Ardith.Medhurst76@yahoo.com","address":{"street":"720 National Court","fullAddress":"720 National Ct, Richmond, CA 94804, USA","zip":"94804","city":"Contra Costa County","state":"CA"},"phone":"(638) 501-2713","interest":["Finisher","Locksmith","Conductor"],"lng":"-122.378077949495","lat":"37.928341"},{"_id":"56247746e4484af803d3bb19","id":99432530,"name":"Miss Kevon Feeney","email":"Jose_Zieme@yahoo.com","address":{"street":"743 Boyd Avenue","fullAddress":"743 Boyd Ave, Richmond, CA 94805, USA","zip":"94805","city":"Contra Costa County","state":"CA"},"phone":"(800) 653-6237","interest":["Toolmaker","Sorter","Installer","Ironworker","Custodian"],"lng":"-122.331760860192","lat":"37.9423268601919"},{"_id":"56247746e4484af803d3bb1a","id":6855880,"name":"Leonardo Romaguera","email":"Annalise.Schowalter71@gmail.com","address":{"street":"3316 Waller Avenue","fullAddress":"3316 Waller Ave, Richmond, CA 94804, USA","zip":"94804","city":"Contra Costa County","state":"CA"},"phone":"(550) 211-6527","interest":["Grinder","Welder","Boilermaker Operator","Plumber","Lithographer"],"lng":"-122.338173778713","lat":"37.9286445940768"},{"_id":"56247746e4484af803d3bb1b","id":91268897,"name":"Armani Johnson","email":"Tad_Monahan51@yahoo.com","address":{"street":"2801 Cutting Boulevard","fullAddress":"2801 Cutting Blvd, Richmond, CA 94804, USA","zip":"94804","city":"Contra Costa County","state":"CA"},"phone":"(916) 561-1170","interest":["Auto Mechanic","Bartender","Shop Foreman","Helper","Cutter"],"lng":"-122.3640616","lat":"37.9252372"},{"_id":"56247746e4484af803d3bb1c","id":53430328,"name":"Lonie Leannon","email":"Monique67@yahoo.com","address":{"street":"325-377 Richmond Parkway","fullAddress":"325-377 Richmond Pkwy, Richmond, CA 94801, USA","zip":"94801","city":"Contra Costa County","state":"CA"},"phone":"(884) 639-2195","interest":["Welder","Inspector","Laborer"],"lng":0,"lat":0},{"_id":"56247746e4484af803d3bb1d","id":33557890,"name":"Shyanne Feeney Miss","email":"Bethel79@yahoo.com","address":{"street":"3201-3221 Cutting Boulevard","fullAddress":"3201-3221 Cutting Blvd, Richmond, CA 94804, USA","zip":"94804","city":"Contra Costa County","state":"CA"},"phone":"(650) 622-8015","interest":["Seamstress","Electrician","Meter Reader","Brakeman","Dock Worker","Gardener/Landscaper","Millworker","Fisherman"],"lng":0,"lat":0},{"_id":"56247746e4484af803d3bb1e","id":30226126,"name":"Samir Bogan","email":"Ashleigh54@yahoo.com","address":{"street":"2631 Foothill Avenue","fullAddress":"2631 Foothill Ave, Richmond, CA 94804, USA","zip":"94804","city":"Contra Costa County","state":"CA"},"phone":"(958) 739-4930","interest":["Brakeman","Construction","Journeyman","Produce Clerk","Crewman","Machine Operator"],"lng":"-122.344240981283","lat":"37.9246150699931"},{"_id":"56247746e4484af803d3bb1f","id":69615527,"name":"Wellington Rice","email":"Roberto36@gmail.com","address":{"street":"701 Lincoln Avenue","fullAddress":"701 Lincoln Ave, Richmond, CA 94801, USA","zip":"94801","city":"Contra Costa County","state":"CA"},"phone":"(807) 636-4464","interest":["Binder","Operator","Maintenance","Attendant","Child Care","Welder","Repairman"],"lng":"-122.362563","lat":"37.946224"},{"_id":"56247746e4484af803d3bb20","id":83789133,"name":"Braeden Kautzer","email":"Elsie_McClure@gmail.com","address":{"street":"325-377 Richmond Parkway","fullAddress":"325-377 Richmond Pkwy, Richmond, CA 94801, USA","zip":"94801","city":"Contra Costa County","state":"CA"},"phone":"(406) 328-5554","interest":["Janitor","Millworker","Gardener/Landscaper"],"lng":0,"lat":0},{"_id":"56247746e4484af803d3bb21","id":83139642,"name":"Retha Kuhn","email":"Graham_Heathcote30@gmail.com","address":{"street":"1300 Macdonald Avenue","fullAddress":"1300 Macdonald Ave, Richmond, CA 94801, USA","zip":"94801","city":"Contra Costa County","state":"CA"},"phone":"(652) 930-7489","interest":["Cutter","Transportation","Sorter","Parts","Truck Driver","Material Handler","Grocer"],"lng":"-122.356971","lat":"37.935621"},{"_id":"56247746e4484af803d3bb22","id":55882798,"name":"Lucienne Lindgren","email":"Magali_Murray77@hotmail.com","address":{"street":"undefined Richmond Greenway Trail","fullAddress":"Richmond Greenway Trail, Richmond, CA 94804, USA","zip":"94804","city":"Contra Costa County","state":"CA"},"phone":"(902) 319-6630","interest":["Installer","Oil Industry/Driller","Porter","Driver","Grinder","Crane Operator"],"lng":"-122.3266526","lat":"37.9314065"},{"_id":"56247746e4484af803d3bb23","id":94786271,"name":"Sammie Grimes","email":"Morton6@yahoo.com","address":{"street":"756 West Gertrude Avenue","fullAddress":"756 W Gertrude Ave, Richmond, CA 94801, USA","zip":"94801","city":"Contra Costa County","state":"CA"},"phone":"(817) 507-6922","interest":["Driver","Printer","Bodyman","Seamstress","Crewman","Installer","Furrier","Foundry Worker","Glazier"],"lng":"-122.3736222","lat":"37.9540413"},{"_id":"56247746e4484af803d3bb24","id":60689111,"name":"Augustus Bruen","email":"Katarina_Prohaska@yahoo.com","address":{"street":"720 National Court","fullAddress":"720 National Ct, Richmond, CA 94804, USA","zip":"94804","city":"Contra Costa County","state":"CA"},"phone":"(832) 779-2755","interest":["Material Handler","Polisher","Cleaner/Laundry","Foreman","Electrician","Conductor","Steel Worker"],"lng":"-122.378077949495","lat":"37.928341"},{"_id":"56247746e4484af803d3bb25","id":33773489,"name":"Patrick VonRueden","email":"Hellen16@hotmail.com","address":{"street":"850 23rd Street","fullAddress":"850 23rd St, Richmond, CA 94804, USA","zip":"94804","city":"Contra Costa County","state":"CA"},"phone":"(980) 783-8739","interest":["Roofer","Brewer","Welder","Miner","Cleaner/Laundry","Truck Driver"],"lng":"-122.347986","lat":"37.9405409"},{"_id":"56247746e4484af803d3bb26","id":94102110,"name":"Claire Heidenreich","email":"Kyra13@gmail.com","address":{"street":"1911 Burbeck Avenue","fullAddress":"1911 Burbeck Ave, Richmond, CA 94801, USA","zip":"94801","city":"Contra Costa County","state":"CA"},"phone":"(750) 710-9268","interest":["Repairman","Pipefitter","Assembler"],"lng":"-122.350708753026","lat":"37.9432003443696"},{"_id":"56247746e4484af803d3bb27","id":39832672,"name":"Telly Orn","email":"Golda_Osinski@gmail.com","address":{"street":"3200 Leona Avenue","fullAddress":"3200 Leona Ave, Richmond, CA 94805, USA","zip":"94805","city":"Contra Costa County","state":"CA"},"phone":"(907) 771-3590","interest":["Gardener/Landscaper","Housekeeper/Maid","Auto Mechanic"],"lng":0,"lat":0},{"_id":"56247746e4484af803d3bb28","id":27587554,"name":"Mrs. Lelia Fritsch","email":"Dax.Bailey@yahoo.com","address":{"street":"1001-1049 7th Street","fullAddress":"1001-1049 7th St, Richmond, CA 94801, USA","zip":"94801","city":"Contra Costa County","state":"CA"},"phone":"(957) 765-3849","interest":["Presser","Stock Clerk","Meter Reader","Seamstress","Dock Worker","Toolmaker","Toolmaker"],"lng":0,"lat":0},{"_id":"56247746e4484af803d3bb29","id":94466253,"name":"Royal Cruickshank","email":"Nina.Kassulke@hotmail.com","address":{"street":"undefined Erlandson Street","fullAddress":"Erlandson St & I-580 & Erlandson Ave, Richmond, CA 94804, USA","zip":"94804","city":"Contra Costa County","state":"CA"},"phone":"(882) 891-9232","interest":["Janitor","Miner","Packer","Sorter","Electrician","Butcher","Pipefitter","Parts"],"lng":0,"lat":0},{"_id":"56247746e4484af803d3bb2a","id":30489860,"name":"Garrick Rolfson","email":"Era.Considine41@hotmail.com","address":{"street":"800-990 West Ohio Avenue","fullAddress":"800-990 W Ohio Ave, Richmond, CA 94804, USA","zip":"94804","city":"Contra Costa County","state":"CA"},"phone":"(944) 624-1363","interest":["Operator","Porter","Barber/Beautician","Crane Operator","Driver","Inspector"],"lng":0,"lat":0},{"_id":"56247746e4484af803d3bb2b","id":37823575,"name":"Ms. Ned Labadie","email":"Sallie.Barton27@gmail.com","address":{"street":"472-498 South 28th Street","fullAddress":"472-498 S 28th St, Richmond, CA 94804, USA","zip":"94804","city":"Contra Costa County","state":"CA"},"phone":"(471) 288-4903","interest":["Sanitation","Produce Clerk","Forklift Operator","Factory Worker"],"lng":0,"lat":0},{"_id":"56247746e4484af803d3bb2c","id":34814258,"name":"Nakia Quigley","email":"April.Harber14@yahoo.com","address":{"street":"1221 Roosevelt Avenue","fullAddress":"1221 Roosevelt Ave, Richmond, CA 94801, USA","zip":"94801","city":"Contra Costa County","state":"CA"},"phone":"(855) 950-2804","interest":["Crewman","Maintenance","Material Handler","Construction"],"lng":"-122.35778597655","lat":"37.9400386642537"},{"_id":"56247746e4484af803d3bb2d","id":3433878,"name":"Dr. Maurine Schumm","email":"Mireille_Hills@gmail.com","address":{"street":"330 South 4th Street","fullAddress":"330 S 4th St, Richmond, CA 94804, USA","zip":"94804","city":"Contra Costa County","state":"CA"},"phone":"(582) 941-4932","interest":["Roofer","Utility","Cosmetologist","Dock Worker","Grinder","Cutter","Brakeman","Brewer","Roofer"],"lng":"-122.365863","lat":"37.9277242244898"},{"_id":"56247746e4484af803d3bb2e","id":22139116,"name":"Etha Keebler","email":"Zaria_Schoen@yahoo.com","address":{"street":"504 Ohio Avenue","fullAddress":"504 Ohio Ave, Richmond, CA 94804, USA","zip":"94804","city":"Contra Costa County","state":"CA"},"phone":"(889) 668-7741","interest":["Waiter/Waitress","Furrier","Laborer","Grocer","Packer","Fabricator","Brewer","Miner"],"lng":"-122.36479601945","lat":"37.93075"},{"_id":"56247746e4484af803d3bb2f","id":22486694,"name":"Patience Harvey Mr.","email":"Daniela_Pfannerstill@gmail.com","address":{"street":"678 7th Street","fullAddress":"678 7th St, Richmond, CA 94801, USA","zip":"94801","city":"Contra Costa County","state":"CA"},"phone":"(753) 746-2465","interest":["Grinder","Apprentice","Brewer","Furrier","Maintenance Supervisor","Brakeman","Molder/Injection Molder","Transportation","Chef","Apprentice"],"lng":"-122.3624639","lat":"37.9418886"},{"_id":"56247746e4484af803d3bb30","id":45905323,"name":"Mrs. Harry Ernser","email":"Kennith.Cummings62@hotmail.com","address":{"street":"717 8th Street","fullAddress":"717 8th St, Richmond, CA 94801, USA","zip":"94801","city":"Contra Costa County","state":"CA"},"phone":"(916) 658-6124","interest":["Cosmetologist","Bartender","Millworker","Meter Reader","Helper"],"lng":"-122.3618814","lat":"37.9430219"},{"_id":"56247746e4484af803d3bb31","id":76982984,"name":"Josephine O'Reilly","email":"Esmeralda_Beier@hotmail.com","address":{"street":"undefined Calspray Street","fullAddress":"Calspray St, Richmond, CA 94801, USA","zip":"94801","city":"Contra Costa County","state":"CA"},"phone":"(884) 595-1430","interest":["Housekeeper/Maid","Presser","Seamstress","Finisher"],"lng":"-122.3682209","lat":"37.9447423"},{"_id":"56247746e4484af803d3bb32","id":61770495,"name":"Lazaro Bosco","email":"Dallin.Schoen99@yahoo.com","address":{"street":"418 23rd Street","fullAddress":"418 23rd St, Richmond, CA 94804, USA","zip":"94804","city":"Contra Costa County","state":"CA"},"phone":"(347) 307-6638","interest":["Stock Clerk","Electrician","Installer","Conductor","Lineman"],"lng":"-122.347433637623","lat":"37.9371927536559"},{"_id":"56247746e4484af803d3bb33","id":80731191,"name":"Sylvan Cronin","email":"Leanne41@yahoo.com","address":{"street":"200 South 20th Street","fullAddress":"200 S 20th St, Richmond, CA 94804, USA","zip":"94804","city":"Contra Costa County","state":"CA"},"phone":"(813) 541-5717","interest":["Waiter/Waitress","Foundry Worker","Forestry"],"lng":"-122.3505154","lat":"37.9384464"},{"_id":"56247746e4484af803d3bb34","id":2028957,"name":"Liam Langosh","email":"Wilmer26@yahoo.com","address":{"street":"2520 Ohio Avenue","fullAddress":"2520 Ohio Ave, Richmond, CA 94804, USA","zip":"94804","city":"Contra Costa County","state":"CA"},"phone":"(425) 627-2243","interest":["Miner","Brakeman","Printer","Bodyman"],"lng":"-122.343969385623","lat":"37.930815078193"},{"_id":"56247746e4484af803d3bb35","id":5638066,"name":"Ryleigh Wilderman","email":"Anastasia_Hayes@yahoo.com","address":{"street":"4109 Overend Avenue","fullAddress":"4109 Overend Ave, Richmond, CA 94804, USA","zip":"94804","city":"Contra Costa County","state":"CA"},"phone":"(555) 409-4982","interest":["Toolmaker","Crewman","Typesetter","Setupman","Driver"],"lng":"-122.330450754959","lat":"37.9264209142249"},{"_id":"56247746e4484af803d3bb36","id":14899182,"name":"Else Davis Miss","email":"Alf77@yahoo.com","address":{"street":"438 2nd Street","fullAddress":"438 2nd St, Richmond, CA 94801, USA","zip":"94801","city":"Contra Costa County","state":"CA"},"phone":"(672) 595-1208","interest":["Athlete","Mechanic","Electrician","Gardener/Landscaper","Production","Truck Driver","Animal Technician/Groomer","Forklift Operator","Courier/Delivery"],"lng":"-122.367569714286","lat":"37.9374698163265"},{"_id":"56247746e4484af803d3bb37","id":26384407,"name":"Ursula Reynolds","email":"Cara82@yahoo.com","address":{"street":"undefined Mills Street","fullAddress":"Mills St, Richmond, CA 94801, USA","zip":"94801","city":"Contra Costa County","state":"CA"},"phone":"(949) 738-5864","interest":["Roofer","Chef","Millworker","Cook","Meter Reader","Gardener/Landscaper","Shipping","Cleaner/Laundry","Cosmetologist","Transportation"],"lng":0,"lat":0},{"_id":"56247746e4484af803d3bb38","id":90796231,"name":"Freeman Kunze","email":"Earline_Crona@yahoo.com","address":{"street":"801 Canal Boulevard","fullAddress":"801 Canal Blvd, Richmond, CA 94804, USA","zip":"94804","city":"Contra Costa County","state":"CA"},"phone":"(432) 811-8374","interest":["Athlete","Carpenter","Welder","Truck Driver","Shop Foreman","Ironworker","Courier/Delivery","Factory Worker"],"lng":"-122.376805","lat":"37.919863"},{"_id":"56247746e4484af803d3bb39","id":71888489,"name":"Emely Luettgen","email":"Nettie.Gleason@hotmail.com","address":{"street":"100-102 Cutting Boulevard","fullAddress":"100-102 Cutting Blvd, Richmond, CA 94804, USA","zip":"94804","city":"Contra Costa County","state":"CA"},"phone":"(422) 660-2306","interest":["Pipefitter","Millwright","Courier/Delivery","Fabricator","Crewman","Miner","Locksmith","Maintenance Supervisor","Cutter","Journeyman"],"lng":"-122.3640616","lat":"37.9252372"},{"_id":"56247746e4484af803d3bb3a","id":46389193,"name":"Mathew Schoen","email":"Dallin34@gmail.com","address":{"street":"838 31st Street","fullAddress":"838 31st St, Richmond, CA 94804, USA","zip":"94804","city":"Contra Costa County","state":"CA"},"phone":"(869) 291-6930","interest":["Grinder","Inspector","Fabricator","Forestry","Stock Clerk","Furrier","Crewman","Welder"],"lng":"-122.337147040816","lat":"37.9442495510204"},{"_id":"56247746e4484af803d3bb3b","id":75516696,"name":"Dina Weimann","email":"Danika.Legros92@gmail.com","address":{"street":"401-499 Marina Way South","fullAddress":"401-499 Marina Way S, Richmond, CA 94804, USA","zip":"94804","city":"Contra Costa County","state":"CA"},"phone":"(565) 331-3435","interest":["Bartender","Miner","Shop Foreman","Finisher","Grocer","Miner"],"lng":0,"lat":0},{"_id":"56247746e4484af803d3bb3c","id":38513385,"name":"Modesta Klocko","email":"Joanne48@gmail.com","address":{"street":"119 37th Street","fullAddress":"119 37th St, Richmond, CA 94805, USA","zip":"94805","city":"Contra Costa County","state":"CA"},"phone":"(652) 278-8702","interest":["Setupman","Helper","Toolmaker","Deli Clerk ","Construction","Printer"],"lng":"-122.334684913864","lat":"37.9322928469469"},{"_id":"56247746e4484af803d3bb3d","id":11675991,"name":"Miss Maureen Hauck","email":"Joaquin9@yahoo.com","address":{"street":"undefined Erlandson Street","fullAddress":"Erlandson St & I-580 & Erlandson Ave, Richmond, CA 94804, USA","zip":"94804","city":"Contra Costa County","state":"CA"},"phone":"(980) 663-4658","interest":["Millworker","Chef","Porter","Stock Clerk","Baker","Produce Clerk","Machine Operator","Fabricator","Farmer","Mason/Brick"],"lng":0,"lat":0},{"_id":"56247746e4484af803d3bb3e","id":24099339,"name":"Eryn Dietrich","email":"Adolf31@gmail.com","address":{"street":"601 Harbour Way","fullAddress":"601 Harbour Way, Richmond, CA 94801, USA","zip":"94801","city":"Contra Costa County","state":"CA"},"phone":"(447) 411-1162","interest":["Farmer","Painter","Shop Foreman"],"lng":0,"lat":0},{"_id":"56247746e4484af803d3bb3f","id":94936644,"name":"Darby Ledner","email":"Trycia.Cartwright43@gmail.com","address":{"street":"632-898 Canal Boulevard","fullAddress":"632-898 Canal Blvd, Richmond, CA 94804, USA","zip":"94804","city":"Contra Costa County","state":"CA"},"phone":"(285) 514-2080","interest":["Machinist","Crane Operator","Pipefitter","Baker","Stock Clerk"],"lng":0,"lat":0},{"_id":"56247746e4484af803d3bb40","id":6601142,"name":"Junius Dietrich","email":"Ariel_Kozey5@gmail.com","address":{"street":"2529-2543 Barrett Avenue","fullAddress":"2529-2543 Barrett Ave, Richmond, CA 94804, USA","zip":"94804","city":"Contra Costa County","state":"CA"},"phone":"(925) 320-1473","interest":["Operator","Steel Worker","Construction","Deli Clerk ","Bus Driver","Bartender","Bartender","Toolmaker","Miner","Porter"],"lng":0,"lat":0},{"_id":"56247746e4484af803d3bb41","id":13171294,"name":"Yvette Collins","email":"Savannah83@hotmail.com","address":{"street":"194 23rd Street","fullAddress":"194 23rd St, Richmond, CA 94804, USA","zip":"94804","city":"Contra Costa County","state":"CA"},"phone":"(387) 482-6995","interest":["Chef","Gardener/Landscaper","Presser","Furrier","Grinder"],"lng":"-122.347509589904","lat":"37.9311351198716"},{"_id":"56247746e4484af803d3bb42","id":2865388,"name":"Mr. Magnus Gusikowski","email":"Kamren_Kuhlman13@gmail.com","address":{"street":"506-530 West Cutting Boulevard","fullAddress":"506-530 W Cutting Blvd, Richmond, CA 94804, USA","zip":"94804","city":"Contra Costa County","state":"CA"},"phone":"(915) 342-4616","interest":["Polisher","Foundry Worker","Helper","Lithographer","Finisher","Finisher","Driver","Apprentice","Fabricator"],"lng":0,"lat":0},{"_id":"56247746e4484af803d3bb43","id":62678503,"name":"Mr. Birdie Windler","email":"Wilmer30@hotmail.com","address":{"street":"905 South 34th Street","fullAddress":"905 S 34th St, Richmond, CA 94804, USA","zip":"94804","city":"Contra Costa County","state":"CA"},"phone":"(285) 790-1137","interest":["Sanitation","Construction","Deli Clerk ","Machine Operator","Plumber","Furrier","Chef"],"lng":"-122.3370032","lat":"37.9262337"},{"_id":"56247746e4484af803d3bb44","id":2922641,"name":"Royal Reynolds","email":"Jazmyn.Lindgren61@hotmail.com","address":{"street":"830 Marina Way South","fullAddress":"830 Marina Way S, Richmond, CA 94804, USA","zip":"94804","city":"Contra Costa County","state":"CA"},"phone":"(520) 398-6428","interest":["Machinist","Sanitation","Cosmetologist","Mason/Brick","Produce Clerk","Journeyman"],"lng":0,"lat":0},{"_id":"56247746e4484af803d3bb45","id":47758285,"name":"Irwin Mitchell","email":"Kailee_Kub45@gmail.com","address":{"street":"1190 Macdonald Avenue","fullAddress":"1190 Macdonald Ave, Richmond, CA 94801, USA","zip":"94801","city":"Contra Costa County","state":"CA"},"phone":"(810) 698-3806","interest":["Brakeman","Custodian","Truck Driver","Courier/Delivery","Upholstery","Cleaner/Laundry","Locksmith","Press Operator"],"lng":"-122.358266857143","lat":"37.9356180816327"},{"_id":"56247746e4484af803d3bb46","id":59928271,"name":"Ryley Gibson","email":"Clotilde.Cartwright@hotmail.com","address":{"street":"4 1st Street","fullAddress":"4 1st St, Richmond, CA 94801, USA","zip":"94801","city":"Contra Costa County","state":"CA"},"phone":"(752) 223-3197","interest":["Millworker","Steel Worker","Material Handler","Plumber","Toolmaker","Bodyman","Machinist"],"lng":"-122.368565","lat":"37.9316035625175"},{"_id":"56247746e4484af803d3bb47","id":79794142,"name":"Hilton Cummings Ms.","email":"Kaylie.Kuhlman68@hotmail.com","address":{"street":"500-598 Chanslor Avenue","fullAddress":"500-598 Chanslor Ave, Richmond, CA 94801, USA","zip":"94801","city":"Contra Costa County","state":"CA"},"phone":"(878) 408-2689","interest":["Farmer","Parts","Dock Worker","Finisher","Brakeman","Installer","Operator","Auto Mechanic","Crane Operator"],"lng":0,"lat":0},{"_id":"56247746e4484af803d3bb48","id":27620193,"name":"Cyril Rippin","email":"Marcus41@yahoo.com","address":{"street":"3798-3948 Bissell Avenue","fullAddress":"3798-3948 Bissell Ave, Richmond, CA 94805, USA","zip":"94805","city":"Contra Costa County","state":"CA"},"phone":"(737) 766-1155","interest":["Grinder","Packer","Dock Worker","Athlete","Laborer","Sorter","Produce Clerk"],"lng":0,"lat":0},{"_id":"56247746e4484af803d3bb49","id":83361909,"name":"Joey Nitzsche","email":"Nicholas_Mertz72@yahoo.com","address":{"street":"630 6th Street","fullAddress":"630 6th St, Richmond, CA 94801, USA","zip":"94801","city":"Contra Costa County","state":"CA"},"phone":"(932) 673-3681","interest":["Fabricator","Grocer","Fabricator","Construction","Truck Driver","Forklift Operator"],"lng":"-122.363317035045","lat":"37.9410895713647"},{"_id":"56247746e4484af803d3bb4a","id":65387847,"name":"Dr. Houston Bailey","email":"Junior_Gleichner99@yahoo.com","address":{"street":"525 Castro Street","fullAddress":"525 Castro St, Richmond, CA 94801, USA","zip":"94801","city":"Contra Costa County","state":"CA"},"phone":"(462) 240-8978","interest":["Butcher","Baker","Grinder","Parts","Apprentice","Millwright","Crane Operator","Waiter/Waitress"],"lng":"-122.3787185","lat":"37.9370696"},{"_id":"56247746e4484af803d3bb4b","id":95102792,"name":"Jaqueline Cruickshank","email":"Caroline_Stracke@yahoo.com","address":{"street":"3200 Barrett Avenue","fullAddress":"3200 Barrett Ave, Richmond, CA 94804, USA","zip":"94804","city":"Contra Costa County","state":"CA"},"phone":"(487) 760-5690","interest":["Lithographer","Toolmaker","Brewer","Packer","Oil Industry/Driller","Factory Worker","Barber/Beautician"],"lng":"-122.337925","lat":"37.937038"},{"_id":"56247746e4484af803d3bb4c","id":12507152,"name":"Cody Franecki Dr.","email":"Corene61@yahoo.com","address":{"street":"456 South 11th Street","fullAddress":"456 S 11th St, Richmond, CA 94804, USA","zip":"94804","city":"Contra Costa County","state":"CA"},"phone":"(237) 783-8242","interest":["Packer","Baker","Assembler","Roofer","Maintenance","Maintenance","Apprentice"],"lng":"-122.3589058","lat":"37.9254598"},{"_id":"56247746e4484af803d3bb4d","id":8662052,"name":"Leslie Kihn","email":"Darion.Deckow38@hotmail.com","address":{"street":"245 South 8th Street","fullAddress":"245 S 8th St, Richmond, CA 94804, USA","zip":"94804","city":"Contra Costa County","state":"CA"},"phone":"(388) 965-1173","interest":["Bodyman","Brakeman","Upholstery","Cosmetologist","Janitor","Millwright","Repairman","Forklift Operator","Molder/Injection Molder"],"lng":"-122.362116858746","lat":"37.9287903267997"}]